{"Info":{"TotalResults":353,"PageNumber":0,"Message":null},"Events":[{"Id":2549276,"Date":"2015-06-22T19:30:00","Venue":{"Id":51821,"Name":"The RecordBar","Address":"1020 Westport Road","City":"Kansas City","State":"Missouri","StateCode":"MO","Country":"US","CountryCode":"US","ZipCode":"64111","Url":"http://www.therecordbar.com/","Latitude":39.04995,"Longitude":-94.598489},"Artists":[{"Id":46180,"Name":"Hugh Cornwell (of The Stranglers)"},{"Id":99418,"Name":"Bent Knee"}],"TicketUrl":"http://www.shareasale.com/r.cfm?u=460319&b=234786&m=27601&afftrack=&urllink=https://www.ticketfly.com/purchase/event/838131/tfly?utm_medium=api"},{"Id":2565590,"Date":"2015-06-22T20:00:00","Venue":{"Id":3845,"Name":"Granada Theater","Address":"1020 Massachusetts Street","City":"Lawrence","State":"Kansas","StateCode":"KS","Country":"US","CountryCode":"US","ZipCode":"66044","Url":"http://www.thegranada.com","Latitude":38.965414,"Longitude":-95.23593},"Artists":[{"Id":94201,"Name":"Elle King"}],"TicketUrl":""},{"Id":2525868,"Date":"2015-06-22T20:30:00","Venue":{"Id":75362,"Name":"Riot Room","Address":"4048 Broadway","City":"Kansas City","State":"Missouri","StateCode":"MO","Country":"US","CountryCode":"US","ZipCode":"64111","Url":"http://www.theriotroom.com/","Latitude":39.05382,"Longitude":-94.590927},"Artists":[{"Id":84003,"Name":"Pan Astral"}],"TicketUrl":"http://www.shareasale.com/r.cfm?u=460319&b=234786&m=27601&afftrack=&urllink=https://www.ticketfly.com/purchase/event/814019/tfly?utm_medium=api"},{"Id":2552057,"Date":"2015-06-22T21:00:00","Venue":{"Id":37591,"Name":"Jackpot Music Hall","Address":"943 Massachusetts St","City":"Lawrence","State":"Kansas","StateCode":"KS","Country":"US","CountryCode":"US","ZipCode":"66044","Url":"http://www.thejackpotsaloon.com/","Latitude":38.966773,"Longitude":-95.23595},"Artists":[{"Id":42243,"Name":"The Life And Times "}],"TicketUrl":"http://www.awin1.com/awclick.php?awinmid=4103&awinaffid=139685&platform=tm&p=http%3a%2f%2fwww.ticketmaster.com%2fevent%2f06004E95F8147EA8"},{"Id":2519387,"Date":"2015-06-23T00:00:00","Venue":{"Id":14775,"Name":"Arvest Bank Theatre at The Midland","Address":"1228 Main Street","City":"Kansas City","State":"Missouri","StateCode":"MO","Country":"US","CountryCode":"US","ZipCode":"64105","Url":"http://www.midlandkc.com/","Latitude":39.0995,"Longitude":-94.5833},"Artists":[{"Id":94115,"Name":"Tyler, the Creator"}],"TicketUrl":""},{"Id":2525691,"Date":"2015-06-23T20:00:00","Venue":{"Id":751,"Name":"Uptown Theater","Address":"3700 Broadway","City":"Kansas City","State":"Missouri","StateCode":"MO","Country":"US","CountryCode":"US","ZipCode":"64111","Url":"http://www.uptowntheater.com","Latitude":39.061404,"Longitude":-94.590733},"Artists":[{"Id":17997,"Name":"Michael McDonald"}],"TicketUrl":"http://www.awin1.com/awclick.php?awinmid=4103&awinaffid=139685&platform=tm&p=http%3a%2f%2fwww.ticketmaster.com%2fevent%2f06004E64B9BE691C"},{"Id":2566594,"Date":"2015-06-23T20:00:00","Venue":{"Id":40726,"Name":"Knuckleheads Saloon","Address":"2719 Rochester St","City":"Kansas City","State":"Missouri","StateCode":"MO","Country":"US","CountryCode":"US","ZipCode":"64120","Url":"http://www.knuckleheadskc.com/","Latitude":39.120704,"Longitude":-94.549232},"Artists":[{"Id":66518,"Name":"The Black Lillies"}],"TicketUrl":"http://www.knuckleheadshonkytonk.com/"},{"Id":2566549,"Date":"2015-06-23T20:00:00","Venue":{"Id":75362,"Name":"Riot Room","Address":"4048 Broadway","City":"Kansas City","State":"Missouri","StateCode":"MO","Country":"US","CountryCode":"US","ZipCode":"64111","Url":"http://www.theriotroom.com/","Latitude":39.05382,"Longitude":-94.590927},"Artists":[{"Id":93592,"Name":"Sol Cat"},{"Id":108395,"Name":"Semicircle"}],"TicketUrl":"http://www.shareasale.com/r.cfm?u=460319&b=234786&m=27601&afftrack=&urllink=https://www.ticketfly.com/purchase/event/863307/tfly?utm_medium=api"},{"Id":2542173,"Date":"2015-06-23T21:30:00","Venue":{"Id":51821,"Name":"The RecordBar","Address":"1020 Westport Road","City":"Kansas City","State":"Missouri","StateCode":"MO","Country":"US","CountryCode":"US","ZipCode":"64111","Url":"http://www.therecordbar.com/","Latitude":39.04995,"Longitude":-94.598489},"Artists":[{"Id":41985,"Name":"Delta Spirit"}],"TicketUrl":"http://www.ticketmaster.com/an-evening-with-delta-spirit-and-kansas-city-missouri-06-23-2015/event/06004E7AC942464F?artistid=1191229&majorcatid=10001&minorcatid=60&tm_link=search_msg-0_06004E7AC942464F"},{"Id":2546795,"Date":"2015-06-24T00:00:00","Venue":{"Id":40726,"Name":"Knuckleheads Saloon","Address":"2719 Rochester St","City":"Kansas City","State":"Missouri","StateCode":"MO","Country":"US","CountryCode":"US","ZipCode":"64120","Url":"http://www.knuckleheadskc.com/","Latitude":39.120704,"Longitude":-94.549232},"Artists":[{"Id":24036,"Name":"Dale Watson"}],"TicketUrl":""},{"Id":2577298,"Date":"2015-06-24T00:00:00","Venue":{"Id":37591,"Name":"Jackpot Music Hall","Address":"943 Massachusetts St","City":"Lawrence","State":"Kansas","StateCode":"KS","Country":"US","CountryCode":"US","ZipCode":"66044","Url":"http://www.thejackpotsaloon.com/","Latitude":38.966773,"Longitude":-95.23595},"Artists":[{"Id":108020,"Name":"Scarlet Canary"}],"TicketUrl":""},{"Id":2518376,"Date":"2015-06-24T00:00:00","Venue":{"Id":15865,"Name":"Starlight Theatre","Address":"4600 Starlight Road","City":"Kansas City","State":"Missouri","StateCode":"MO","Country":"US","CountryCode":"US","ZipCode":"64132","Url":"http://www.kcstarlight.com ","Latitude":39.009705,"Longitude":-94.531832},"Artists":[{"Id":49,"Name":"Widespread Panic"},{"Id":2479,"Name":"Yonder Mountain String Band"}],"TicketUrl":"http://tickets.kcstarlight.com/single/SelectSeating.aspx?p=1023"},{"Id":2529197,"Date":"2015-06-24T00:00:00","Venue":{"Id":100605,"Name":"Kobi's","Address":"113 Oak Ave","City":"Bonner Springs","State":"Kansas","StateCode":"KS","Country":"US","CountryCode":"US","ZipCode":"66012","Url":"http://www.kobisbar.com/","Latitude":39.0633416,"Longitude":-94.8845174},"Artists":[{"Id":41884,"Name":"Teacher'z Pet"}],"TicketUrl":""},{"Id":2546151,"Date":"2015-06-24T19:00:00","Venue":{"Id":27213,"Name":"Lawrence Arts Center","Address":"940 New Hampshire","City":"Lawrence","State":"Kansas","StateCode":"KS","Country":"US","CountryCode":"US","ZipCode":"66044","Url":"http://www.lawrenceartscenter.com","Latitude":38.9664764404297,"Longitude":-95.2345352172852},"Artists":[{"Id":281,"Name":"George Clinton & Parliament Funkadelic"},{"Id":40724,"Name":"George Clinton"}],"TicketUrl":""},{"Id":2529194,"Date":"2015-06-24T19:00:00","Venue":{"Id":51821,"Name":"The RecordBar","Address":"1020 Westport Road","City":"Kansas City","State":"Missouri","StateCode":"MO","Country":"US","CountryCode":"US","ZipCode":"64111","Url":"http://www.therecordbar.com/","Latitude":39.04995,"Longitude":-94.598489},"Artists":[{"Id":43984,"Name":"Bob Walkenhorst"},{"Id":64207,"Name":"Daniel and the Lion"}],"TicketUrl":"https://www.ticketfly.com/purchase/event/853889/tfly?utm_medium=api"},{"Id":2569084,"Date":"2015-06-24T19:30:00","Venue":{"Id":87754,"Name":"Aftershock","Address":"5240 Merriam Drive","City":"Merriam","State":"Kansas","StateCode":"KS","Country":"US","CountryCode":"US","ZipCode":"66203","Url":"http://www.aftershockkc.com","Latitude":39.033422,"Longitude":-94.691324},"Artists":[{"Id":97214,"Name":"Heartist"}],"TicketUrl":"http://www.awin1.com/awclick.php?awinmid=4103&awinaffid=139685&platform=tm&p=http%3a%2f%2fwww.ticketmaster.com%2fevent%2f06004EAFA3C35A1C"},{"Id":2558632,"Date":"2015-06-24T20:00:00","Venue":{"Id":75362,"Name":"Riot Room","Address":"4048 Broadway","City":"Kansas City","State":"Missouri","StateCode":"MO","Country":"US","CountryCode":"US","ZipCode":"64111","Url":"http://www.theriotroom.com/","Latitude":39.05382,"Longitude":-94.590927},"Artists":[{"Id":16983,"Name":"DJ Craze"},{"Id":40619,"Name":"Sebastian Bach"},{"Id":71251,"Name":"NMEZEE"},{"Id":99342,"Name":"WILSON"}],"TicketUrl":"http://www.shareasale.com/r.cfm?u=460319&b=234786&m=27601&afftrack=&urllink=https://www.ticketfly.com/purchase/event/846743/tfly?utm_medium=api"},{"Id":2552015,"Date":"2015-06-24T20:00:00","Venue":{"Id":751,"Name":"Uptown Theater","Address":"3700 Broadway","City":"Kansas City","State":"Missouri","StateCode":"MO","Country":"US","CountryCode":"US","ZipCode":"64111","Url":"http://www.uptowntheater.com","Latitude":39.061404,"Longitude":-94.590733},"Artists":[{"Id":23680,"Name":"Melissa Etheridge"}],"TicketUrl":"http://www.awin1.com/awclick.php?awinmid=4103&awinaffid=139685&platform=tm&p=http%3a%2f%2fwww.ticketmaster.com%2fevent%2f06004E8FD5258F8B"},{"Id":2569940,"Date":"2015-06-24T20:00:00","Venue":{"Id":150682,"Name":"Local Tap ","Address":"7300 W 119th St","City":"Overland Park","State":"Kansas","StateCode":"KS","Country":"US","CountryCode":"US","ZipCode":"66213","Url":"","Latitude":0.0,"Longitude":0.0},"Artists":[{"Id":105830,"Name":"The Mikey Needleman Band"}],"TicketUrl":""},{"Id":2510594,"Date":"2015-06-25T00:00:00","Venue":{"Id":19963,"Name":"The Lake House Pub","Address":"East Colburn RD","City":"Lake Lotawana","State":"Missouri","StateCode":"MO","Country":"US","CountryCode":"US","ZipCode":"64086","Url":"","Latitude":38.9424795,"Longitude":-94.2200533},"Artists":[{"Id":44236,"Name":"Escape The Fate"}],"TicketUrl":""},{"Id":2543028,"Date":"2015-06-25T00:00:00","Venue":{"Id":138678,"Name":"Town Center Plaza","Address":"5000 W. 119th Street","City":"Leawood","State":"Kansas","StateCode":"KS","Country":"US","CountryCode":"US","ZipCode":"66209","Url":"","Latitude":0.0,"Longitude":0.0},"Artists":[{"Id":27156,"Name":"LIT"}],"TicketUrl":""},{"Id":2552272,"Date":"2015-06-25T20:00:00","Venue":{"Id":75362,"Name":"Riot Room","Address":"4048 Broadway","City":"Kansas City","State":"Missouri","StateCode":"MO","Country":"US","CountryCode":"US","ZipCode":"64111","Url":"http://www.theriotroom.com/","Latitude":39.05382,"Longitude":-94.590927},"Artists":[{"Id":13630,"Name":"Unwritten Law"},{"Id":43018,"Name":"Total Chaos"}],"TicketUrl":"http://www.shareasale.com/r.cfm?u=460319&b=234786&m=27601&afftrack=&urllink=https://www.ticketfly.com/purchase/event/840441/tfly?utm_medium=api"},{"Id":2557248,"Date":"2015-06-26T00:00:00","Venue":{"Id":137362,"Name":"Riot Room Patio","Address":"","City":"Kansas City","State":"Missouri","StateCode":"MO","Country":"US","CountryCode":"US","ZipCode":"64111","Url":"http://www.theriotroom.com/","Latitude":0.0,"Longitude":0.0},"Artists":[{"Id":82957,"Name":"The Bright Light Social Hour"}],"TicketUrl":""},{"Id":2551207,"Date":"2015-06-26T00:00:00","Venue":{"Id":39290,"Name":"BB's Lawnside BBQ","Address":"1205 E. 85th Street","City":"Kansas City","State":"Missouri","StateCode":"MO","Country":"US","CountryCode":"US","ZipCode":"64131","Url":"http://www.bbslawnsidebbq.com","Latitude":38.973455,"Longitude":-94.575424},"Artists":[{"Id":38097,"Name":"Crosseyed Cat"}],"TicketUrl":""},{"Id":2571696,"Date":"2015-06-26T19:00:00","Venue":{"Id":51821,"Name":"The RecordBar","Address":"1020 Westport Road","City":"Kansas City","State":"Missouri","StateCode":"MO","Country":"US","CountryCode":"US","ZipCode":"64111","Url":"http://www.therecordbar.com/","Latitude":39.04995,"Longitude":-94.598489},"Artists":[{"Id":44192,"Name":"Big Youth"},{"Id":80921,"Name":"Crayons"},{"Id":100506,"Name":"The Hussy"}],"TicketUrl":"http://www.shareasale.com/r.cfm?u=460319&b=234786&m=27601&afftrack=&urllink=https://www.ticketfly.com/purchase/event/863867/tfly?utm_medium=api"},{"Id":2530373,"Date":"2015-06-26T20:00:00","Venue":{"Id":3845,"Name":"Granada Theater","Address":"1020 Massachusetts Street","City":"Lawrence","State":"Kansas","StateCode":"KS","Country":"US","CountryCode":"US","ZipCode":"66044","Url":"http://www.thegranada.com","Latitude":38.965414,"Longitude":-95.23593},"Artists":[{"Id":91458,"Name":"Death Grips"}],"TicketUrl":""},{"Id":2538718,"Date":"2015-06-26T20:00:00","Venue":{"Id":75362,"Name":"Riot Room","Address":"4048 Broadway","City":"Kansas City","State":"Missouri","StateCode":"MO","Country":"US","CountryCode":"US","ZipCode":"64111","Url":"http://www.theriotroom.com/","Latitude":39.05382,"Longitude":-94.590927},"Artists":[{"Id":12571,"Name":"Bob Log III"},{"Id":82957,"Name":"The Bright Light Social Hour"},{"Id":98370,"Name":"Architekt"}],"TicketUrl":"http://www.shareasale.com/r.cfm?u=460319&b=234786&m=27601&afftrack=&urllink=https://www.ticketfly.com/purchase/event/826191/tfly?utm_medium=api"},{"Id":2579342,"Date":"2015-06-26T20:30:00","Venue":{"Id":52002,"Name":"Blue Room","Address":"1616 E. 18th St.","City":"Kansas City","State":"Missouri","StateCode":"MO","Country":"US","CountryCode":"US","ZipCode":"64108","Url":"http://www.americanjazzmuseum.com","Latitude":39.0912,"Longitude":-94.5632},"Artists":[{"Id":101996,"Name":"Everette Devan"}],"TicketUrl":"http://www.awin1.com/awclick.php?awinmid=4103&awinaffid=139685&platform=tm&p=http%3a%2f%2fwww.ticketmaster.com%2fevent%2f06004EBC9B062A53"},{"Id":2578840,"Date":"2015-06-26T21:00:00","Venue":{"Id":140752,"Name":"Mini Bar ","Address":"3810 Broadway","City":"Kansas City","State":"Missouri","StateCode":"MO","Country":"US","CountryCode":"US","ZipCode":"64111","Url":"","Latitude":0.0,"Longitude":0.0},"Artists":[{"Id":100506,"Name":"The Hussy"}],"TicketUrl":"http://www.shareasale.com/r.cfm?u=460319&b=234786&m=27601&afftrack=&urllink=https://www.ticketfly.com/purchase/event/870113/tfly?utm_medium=api"},{"Id":2482259,"Date":"2015-06-26T22:00:00","Venue":{"Id":150682,"Name":"Local Tap ","Address":"7300 W 119th St","City":"Overland Park","State":"Kansas","StateCode":"KS","Country":"US","CountryCode":"US","ZipCode":"66213","Url":"","Latitude":0.0,"Longitude":0.0},"Artists":[{"Id":105830,"Name":"The Mikey Needleman Band"}],"TicketUrl":""},{"Id":2572822,"Date":"2015-06-27T00:00:00","Venue":{"Id":133795,"Name":"Sullivan's ","Address":"4501 West 119th Street","City":"Leawood","State":"Kansas","StateCode":"KS","Country":"US","CountryCode":"US","ZipCode":"66209","Url":"","Latitude":38.912815,"Longitude":-94.6368888},"Artists":[{"Id":60804,"Name":"Will Matthews"}],"TicketUrl":""},{"Id":2528534,"Date":"2015-06-27T00:00:00","Venue":{"Id":64708,"Name":"Crossroads KC","Address":"417 E 18th Street","City":"Kansas City","State":"Missouri","StateCode":"MO","Country":"US","CountryCode":"US","ZipCode":"64108","Url":"http://www.crossroadskc.com/","Latitude":39.0918,"Longitude":-94.5788},"Artists":[{"Id":2735,"Name":"Umphrey's McGee"}],"TicketUrl":""},{"Id":2591652,"Date":"2015-06-27T15:00:00","Venue":{"Id":75362,"Name":"Riot Room","Address":"4048 Broadway","City":"Kansas City","State":"Missouri","StateCode":"MO","Country":"US","CountryCode":"US","ZipCode":"64111","Url":"http://www.theriotroom.com/","Latitude":39.05382,"Longitude":-94.590927},"Artists":[{"Id":28122,"Name":"Dose"}],"TicketUrl":"https://www.ticketfly.com/purchase/event/886455/tfly?utm_medium=api"},{"Id":2547745,"Date":"2015-06-27T18:00:00","Venue":{"Id":198,"Name":"Cricket Wireless Amphitheater","Address":"633 North 130th Street","City":"Bonner Springs","State":"Kansas","StateCode":"KS","Country":"US","CountryCode":"US","ZipCode":"66012","Url":"http://www.sandstoneamp.com/","Latitude":39.1099,"Longitude":-94.8819},"Artists":[{"Id":41634,"Name":"Tech N9ne"},{"Id":53105,"Name":"Flo Rida"},{"Id":55361,"Name":"Cash Cash"},{"Id":80360,"Name":"Andy Grammer"},{"Id":83733,"Name":"Olly Murs"},{"Id":88944,"Name":"Cody Simpson"},{"Id":103347,"Name":"Tori Kelly"},{"Id":104446,"Name":"MKTO"},{"Id":109835,"Name":"Ryn Weaver"},{"Id":110870,"Name":"Natalie La Rose"}],"TicketUrl":"http://www.awin1.com/awclick.php?awinmid=4103&awinaffid=139685&platform=tm&p=http%3a%2f%2fwww.ticketmaster.com%2fevent%2f06004E88D6D1BB72"},{"Id":2571682,"Date":"2015-06-27T19:00:00","Venue":{"Id":51821,"Name":"The RecordBar","Address":"1020 Westport Road","City":"Kansas City","State":"Missouri","StateCode":"MO","Country":"US","CountryCode":"US","ZipCode":"64111","Url":"http://www.therecordbar.com/","Latitude":39.04995,"Longitude":-94.598489},"Artists":[{"Id":4724,"Name":"Riptide"}],"TicketUrl":"http://www.shareasale.com/r.cfm?u=460319&b=234786&m=27601&afftrack=&urllink=https://www.ticketfly.com/purchase/event/863777/tfly?utm_medium=api"},{"Id":2511931,"Date":"2015-06-27T19:00:00","Venue":{"Id":126894,"Name":"Wabash BBQ","Address":"646 South Kansas City Avenue","City":"Excelsior Springs","State":"Missouri","StateCode":"MO","Country":"US","CountryCode":"US","ZipCode":"64024","Url":"","Latitude":39.3354554,"Longitude":-94.2274188},"Artists":[{"Id":91859,"Name":"The Bel Airs"}],"TicketUrl":""},{"Id":2552365,"Date":"2015-06-27T20:00:00","Venue":{"Id":60388,"Name":"Ameristar Casino","Address":"3200 Ameristar Dr","City":"Kansas City","State":"Missouri","StateCode":"MO","Country":"US","CountryCode":"US","ZipCode":"64161","Url":"","Latitude":39.152164,"Longitude":-94.477208},"Artists":[{"Id":12107,"Name":"Ronnie Milsap"}],"TicketUrl":"http://www.awin1.com/awclick.php?awinmid=4103&awinaffid=139685&platform=tm&p=http%3a%2f%2fwww.ticketmaster.com%2fevent%2f06004E82E13BA576"},{"Id":2490525,"Date":"2015-06-27T20:00:00","Venue":{"Id":66299,"Name":"Harrah's VooDoo Lounge","Address":"1 Riverboat Dr","City":"Kansas City","State":"Missouri","StateCode":"MO","Country":"US","CountryCode":"US","ZipCode":"64116","Url":"http://www.harrahs.com/casinos/harrahs-north-kansa","Latitude":39.148585,"Longitude":-94.535025},"Artists":[{"Id":9924,"Name":"Grind"},{"Id":27332,"Name":"Satisfaction - Rolling Stones Experience"}],"TicketUrl":"http://www.awin1.com/awclick.php?awinmid=4103&awinaffid=139685&platform=tm&p=http%3a%2f%2fwww.ticketmaster.com%2fevent%2f06004E91B3904EB0"},{"Id":2535800,"Date":"2015-06-27T20:00:00","Venue":{"Id":56929,"Name":"Arrowhead Stadium","Address":"2 Arrowhead Dr","City":"Kansas City","State":"Missouri","StateCode":"MO","Country":"US","CountryCode":"US","ZipCode":"64129","Url":"http://www.kcchiefs.com/","Latitude":39.047046,"Longitude":-94.484578},"Artists":[{"Id":42,"Name":"The Rolling Stones"},{"Id":91762,"Name":"Ed Sheeran"}],"TicketUrl":"http://www.awin1.com/awclick.php?awinmid=4103&awinaffid=139685&platform=tm&p=http%3a%2f%2fwww.ticketmaster.com%2fevent%2f06004E7AF37867C2"},{"Id":2587955,"Date":"2015-06-27T20:00:00","Venue":{"Id":3845,"Name":"Granada Theater","Address":"1020 Massachusetts Street","City":"Lawrence","State":"Kansas","StateCode":"KS","Country":"US","CountryCode":"US","ZipCode":"66044","Url":"http://www.thegranada.com","Latitude":38.965414,"Longitude":-95.23593},"Artists":[{"Id":15202,"Name":"Will Hoge"}],"TicketUrl":""},{"Id":2579346,"Date":"2015-06-27T20:30:00","Venue":{"Id":52002,"Name":"Blue Room","Address":"1616 E. 18th St.","City":"Kansas City","State":"Missouri","StateCode":"MO","Country":"US","CountryCode":"US","ZipCode":"64108","Url":"http://www.americanjazzmuseum.com","Latitude":39.0912,"Longitude":-94.5632},"Artists":[{"Id":62313,"Name":"Ida McBeth"}],"TicketUrl":"http://www.awin1.com/awclick.php?awinmid=4103&awinaffid=139685&platform=tm&p=http%3a%2f%2fwww.ticketmaster.com%2fevent%2f06004EBCA1A431A8"},{"Id":2566626,"Date":"2015-06-27T22:00:00","Venue":{"Id":626,"Name":"Bottleneck","Address":"737 New Hampshire","City":"Lawrence","State":"Kansas","StateCode":"KS","Country":"US","CountryCode":"US","ZipCode":"66044","Url":"http://www.thebottlenecklive.com","Latitude":38.97063,"Longitude":-95.234889},"Artists":[{"Id":63418,"Name":"The Noise FM"}],"TicketUrl":""},{"Id":2587783,"Date":"2015-06-28T00:00:00","Venue":{"Id":134561,"Name":"Club 906 ","Address":"906 W Liberty Dr ","City":"Liberty","State":"Missouri","StateCode":"MO","Country":"US","CountryCode":"US","ZipCode":"64068","Url":"","Latitude":39.240426,"Longitude":-94.435495},"Artists":[{"Id":99290,"Name":"Dutch Newman"}],"TicketUrl":""},{"Id":2552316,"Date":"2015-06-28T18:00:00","Venue":{"Id":37591,"Name":"Jackpot Music Hall","Address":"943 Massachusetts St","City":"Lawrence","State":"Kansas","StateCode":"KS","Country":"US","CountryCode":"US","ZipCode":"66044","Url":"http://www.thejackpotsaloon.com/","Latitude":38.966773,"Longitude":-95.23595},"Artists":[{"Id":99882,"Name":"I The Mighty"},{"Id":100019,"Name":"Hail The Sun"},{"Id":110820,"Name":"Too Close To Touch"}],"TicketUrl":"http://www.shareasale.com/r.cfm?u=460319&b=234786&m=27601&afftrack=&urllink=https://www.ticketfly.com/purchase/event/843305/tfly?utm_medium=api"},{"Id":2477275,"Date":"2015-06-30T00:00:00","Venue":{"Id":14775,"Name":"Arvest Bank Theatre at The Midland","Address":"1228 Main Street","City":"Kansas City","State":"Missouri","StateCode":"MO","Country":"US","CountryCode":"US","ZipCode":"64105","Url":"http://www.midlandkc.com/","Latitude":39.0995,"Longitude":-94.5833},"Artists":[{"Id":44823,"Name":"\"Weird Al\" Yankovic"}],"TicketUrl":""},{"Id":2577398,"Date":"2015-06-30T00:00:00","Venue":{"Id":75362,"Name":"Riot Room","Address":"4048 Broadway","City":"Kansas City","State":"Missouri","StateCode":"MO","Country":"US","CountryCode":"US","ZipCode":"64111","Url":"http://www.theriotroom.com/","Latitude":39.05382,"Longitude":-94.590927},"Artists":[{"Id":31986,"Name":"Token"}],"TicketUrl":""},{"Id":2527834,"Date":"2015-06-30T20:00:00","Venue":{"Id":64708,"Name":"Crossroads KC","Address":"417 E 18th Street","City":"Kansas City","State":"Missouri","StateCode":"MO","Country":"US","CountryCode":"US","ZipCode":"64108","Url":"http://www.crossroadskc.com/","Latitude":39.0918,"Longitude":-94.5788},"Artists":[{"Id":2734,"Name":"Dark Star Orchestra"}],"TicketUrl":"http://crossroads.frontgatetickets.com/choose.php?a=1&lid=103941&eid=115778"},{"Id":2566557,"Date":"2015-06-30T21:00:00","Venue":{"Id":626,"Name":"Bottleneck","Address":"737 New Hampshire","City":"Lawrence","State":"Kansas","StateCode":"KS","Country":"US","CountryCode":"US","ZipCode":"66044","Url":"http://www.thebottlenecklive.com","Latitude":38.97063,"Longitude":-95.234889},"Artists":[{"Id":24633,"Name":"Sol Driven Train"}],"TicketUrl":""},{"Id":2573932,"Date":"2015-06-30T21:45:00","Venue":{"Id":51821,"Name":"The RecordBar","Address":"1020 Westport Road","City":"Kansas City","State":"Missouri","StateCode":"MO","Country":"US","CountryCode":"US","ZipCode":"64111","Url":"http://www.therecordbar.com/","Latitude":39.04995,"Longitude":-94.598489},"Artists":[{"Id":86050,"Name":"The Bends"}],"TicketUrl":"http://www.shareasale.com/r.cfm?u=460319&b=234786&m=27601&afftrack=&urllink=https://www.ticketfly.com/purchase/event/865115/tfly?utm_medium=api"},{"Id":2553927,"Date":"2015-07-01T00:00:00","Venue":{"Id":37591,"Name":"Jackpot Music Hall","Address":"943 Massachusetts St","City":"Lawrence","State":"Kansas","StateCode":"KS","Country":"US","CountryCode":"US","ZipCode":"66044","Url":"http://www.thejackpotsaloon.com/","Latitude":38.966773,"Longitude":-95.23595},"Artists":[{"Id":110850,"Name":"Arabrot"}],"TicketUrl":""}]}